[
    {
        "City": "BOTHELL",
        "Thursday": "0",
        "Open5": "0",
        "Sunday": "0",
        "Latitude": "47.7436476",
        "Monday": "0",
        "Friday": "0",
        "AddressLine2": "",
        "location": [
            "-122.2091436",
            "47.7436476"
        ],
        "AddressLine1": "15904 99TH PL N E",
        "RecipientName": "",
        "Close2": "0",
        "Close3": "0",
        "Close0": "0",
        "Close1": "0",
        "Close6": "0",
        "Name": "15904 99th Pl NE",
        "Close4": "0",
        "Close5": "0",
        "Wednesday": "0",
        "Longitude": "-122.2091436",
        "PostalCode": "98011",
        "Open4": "0",
        "Open6": "0",
        "Open1": "0",
        "Open0": "0",
        "Open3": "0",
        "Open2": "0",
        "PSACSA": "301777",
        "Tuesday": "0",
        "State": "WA",
        "WorkArea": "335",
        "Saturday": "0"
    },
    {
        "City": "KIRKLAND",
        "Thursday": "0",
        "Open5": "0",
        "Sunday": "0",
        "Latitude": "47.7066697",
        "Monday": "0",
        "Friday": "0",
        "AddressLine2": "APT E310",
        "location": [
            "-122.2124293",
            "47.7066697"
        ],
        "AddressLine1": "9736 NE 119TH WAY",
        "RecipientName": "",
        "Close2": "0",
        "Close3": "0",
        "Close0": "0",
        "Close1": "0",
        "Close6": "0",
        "Name": "9736 NE 119th Way e310",
        "Close4": "0",
        "Close5": "0",
        "Wednesday": "0",
        "Longitude": "-122.2124293",
        "PostalCode": "98034705350",
        "Open4": "0",
        "Open6": "0",
        "Open1": "0",
        "Open0": "0",
        "Open3": "0",
        "Open2": "0",
        "PSACSA": "301777",
        "Tuesday": "0",
        "State": "WA",
        "WorkArea": "340",
        "Saturday": "0"
    },
    {
        "City": "KIRKLAND",
        "Thursday": "0",
        "Open5": "0",
        "Sunday": "0",
        "Latitude": "47.7213489",
        "Monday": "0",
        "Friday": "0",
        "AddressLine2": "",
        "location": [
            "-122.183141",
            "47.7213489"
        ],
        "AddressLine1": "11724 NE 135TH ST",
        "RecipientName": "",
        "Close2": "0",
        "Close3": "0",
        "Close0": "0",
        "Close1": "0",
        "Close6": "0",
        "Name": "11724 NE 135th St",
        "Close4": "0",
        "Close5": "0",
        "Wednesday": "0",
        "Longitude": "-122.183141",
        "PostalCode": "98034212824",
        "Open4": "0",
        "Open6": "0",
        "Open1": "0",
        "Open0": "0",
        "Open3": "0",
        "Open2": "0",
        "PSACSA": "301777",
        "Tuesday": "0",
        "State": "WA",
        "WorkArea": "335",
        "Saturday": "0"
    },
    {
        "City": "KIRKLAND",
        "Thursday": "0",
        "Open5": "0",
        "Sunday": "0",
        "Latitude": "47.7152168",
        "Monday": "0",
        "Friday": "0",
        "AddressLine2": "",
        "location": [
            "-122.1839933",
            "47.7152168"
        ],
        "AddressLine1": "11800 NE 128TH ST",
        "RecipientName": "STE 100",
        "Close2": "0",
        "Close3": "0",
        "Close0": "0",
        "Close1": "0",
        "Close6": "0",
        "Name": "11800 NE 128th St #100",
        "Close4": "0",
        "Close5": "0",
        "Wednesday": "0",
        "Longitude": "-122.1839933",
        "PostalCode": "98034720825",
        "Open4": "0",
        "Open6": "0",
        "Open1": "0",
        "Open0": "0",
        "Open3": "0",
        "Open2": "0",
        "PSACSA": "301777",
        "Tuesday": "0",
        "State": "WA",
        "WorkArea": "335",
        "Saturday": "0"
    },
    {
        "City": "KIRKLAND",
        "Thursday": "0",
        "Open5": "0",
        "Sunday": "0",
        "Latitude": "47.7161168",
        "Monday": "0",
        "Friday": "0",
        "AddressLine2": "STE 110",
        "location": [
            "-122.1765109",
            "47.7161168"
        ],
        "AddressLine1": "12333 NE 130TH LN",
        "RecipientName": "EVERGREEN WOMEN'S HEALTH CENTER",
        "Close2": "0",
        "Close3": "0",
        "Close0": "0",
        "Close1": "0",
        "Close6": "0",
        "Name": "Evergreen Women's Health Center: Brumfiel Mary MD",
        "Close4": "0",
        "Close5": "0",
        "Wednesday": "0",
        "Longitude": "-122.1765109",
        "PostalCode": "98034746735",
        "Open4": "0",
        "Open6": "0",
        "Open1": "0",
        "Open0": "0",
        "Open3": "0",
        "Open2": "0",
        "PSACSA": "301777",
        "Tuesday": "0",
        "State": "WA",
        "WorkArea": "335",
        "Saturday": "0"
    },
    {
        "City": "KIRKLAND",
        "Thursday": "0",
        "Open5": "0",
        "Sunday": "0",
        "Latitude": "47.7085546",
        "Monday": "0",
        "Friday": "0",
        "AddressLine2": "APT 420",
        "location": [
            "-122.2119707",
            "47.7085546"
        ],
        "AddressLine1": "12024 96TH AVE NE",
        "RecipientName": "",
        "Close2": "0",
        "Close3": "0",
        "Close0": "0",
        "Close1": "0",
        "Close6": "0",
        "Name": "12024 96th Ave NE #420",
        "Close4": "0",
        "Close5": "0",
        "Wednesday": "0",
        "Longitude": "-122.2119707",
        "PostalCode": "98034622620",
        "Open4": "0",
        "Open6": "0",
        "Open1": "0",
        "Open0": "0",
        "Open3": "0",
        "Open2": "0",
        "PSACSA": "301777",
        "Tuesday": "0",
        "State": "WA",
        "WorkArea": "340",
        "Saturday": "0"
    },
    {
        "City": "KIRKLAND",
        "Thursday": "0",
        "Open5": "0",
        "Sunday": "0",
        "Latitude": "47.7162555",
        "Monday": "0",
        "Friday": "0",
        "AddressLine2": "STE H110",
        "location": [
            "-122.1815944",
            "47.7162555"
        ],
        "AddressLine1": "12911 120TH AVE NE",
        "RecipientName": "",
        "Close2": "0",
        "Close3": "0",
        "Close0": "0",
        "Close1": "0",
        "Close6": "0",
        "Name": "12911 120th Ave NE h110",
        "Close4": "0",
        "Close5": "0",
        "Wednesday": "0",
        "Longitude": "-122.1815944",
        "PostalCode": "98034306180",
        "Open4": "0",
        "Open6": "0",
        "Open1": "0",
        "Open0": "0",
        "Open3": "0",
        "Open2": "0",
        "PSACSA": "301777",
        "Tuesday": "0",
        "State": "WA",
        "WorkArea": "335",
        "Saturday": "0"
    },
    {
        "City": "KIRKLAND",
        "Thursday": "1",
        "Open5": "1130",
        "Sunday": "1",
        "Latitude": "47.7315447",
        "Monday": "1",
        "Friday": "1",
        "AddressLine2": "",
        "location": [
            "-122.1762072",
            "47.7315447"
        ],
        "AddressLine1": "14401 124TH AVE NE",
        "RecipientName": "PIZZA BANK",
        "Close2": "2100",
        "Close3": "2100",
        "Close0": "2100",
        "Close1": "2100",
        "Close6": "2200",
        "Name": "Pizza Bank Restaurant",
        "Close4": "2100",
        "Close5": "2200",
        "Wednesday": "1",
        "Longitude": "-122.1762072",
        "PostalCode": "98034480101",
        "Open4": "1130",
        "Open6": "1600",
        "Open1": "1130",
        "Open0": "1600",
        "Open3": "1130",
        "Open2": "1130",
        "PSACSA": "301777",
        "Tuesday": "1",
        "State": "WA",
        "WorkArea": "335",
        "Saturday": "1"
    },
    {
        "City": "KIRKLAND",
        "Thursday": "0",
        "Open5": "0",
        "Sunday": "0",
        "Latitude": "47.7181646",
        "Monday": "0",
        "Friday": "0",
        "AddressLine2": "STE 201",
        "location": [
            "-122.1782653",
            "47.7181646"
        ],
        "AddressLine1": "13118 121ST WAY NE",
        "RecipientName": "KIRKLAND PHYSICAL THERAPY",
        "Close2": "0",
        "Close3": "0",
        "Close0": "0",
        "Close1": "0",
        "Close6": "0",
        "Name": "Kirkland Physical Therapy, Inc., PS",
        "Close4": "0",
        "Close5": "0",
        "Wednesday": "0",
        "Longitude": "-122.1782653",
        "PostalCode": "98034300451",
        "Open4": "0",
        "Open6": "0",
        "Open1": "0",
        "Open0": "0",
        "Open3": "0",
        "Open2": "0",
        "PSACSA": "301777",
        "Tuesday": "0",
        "State": "WA",
        "WorkArea": "335",
        "Saturday": "0"
    },
    {
        "City": "KIRKLAND",
        "Thursday": "1",
        "Open5": "1000",
        "Sunday": "1",
        "Latitude": "47.7213076",
        "Monday": "1",
        "Friday": "1",
        "AddressLine2": "",
        "location": [
            "-122.2083594",
            "47.7213076"
        ],
        "AddressLine1": "13501 100TH AVE NE",
        "RecipientName": "QUALITY SEWING AND VACUUM GRP",
        "Close2": "1800",
        "Close3": "1800",
        "Close0": "1600",
        "Close1": "1800",
        "Close6": "1700",
        "Name": "Quality Sewing & Vacuum",
        "Close4": "1800",
        "Close5": "1800",
        "Wednesday": "1",
        "Longitude": "-122.2083594",
        "PostalCode": "98034523699",
        "Open4": "1000",
        "Open6": "900",
        "Open1": "1000",
        "Open0": "1100",
        "Open3": "1000",
        "Open2": "1000",
        "PSACSA": "301777",
        "Tuesday": "1",
        "State": "WA",
        "WorkArea": "340",
        "Saturday": "1"
    },
    {
        "City": "KIRKLAND",
        "Thursday": "1",
        "Open5": "1000",
        "Sunday": "1",
        "Latitude": "47.7213076",
        "Monday": "1",
        "Friday": "1",
        "AddressLine2": "STE 100",
        "location": [
            "-122.2083594",
            "47.7213076"
        ],
        "AddressLine1": "13501 100TH AVE NE",
        "RecipientName": "QUALITY SEWING & VACUUM",
        "Close2": "1800",
        "Close3": "1800",
        "Close0": "1600",
        "Close1": "1800",
        "Close6": "1700",
        "Name": "Quality Sewing & Vacuum",
        "Close4": "1800",
        "Close5": "1800",
        "Wednesday": "1",
        "Longitude": "-122.2083594",
        "PostalCode": "98034520925",
        "Open4": "1000",
        "Open6": "900",
        "Open1": "1000",
        "Open0": "1100",
        "Open3": "1000",
        "Open2": "1000",
        "PSACSA": "301777",
        "Tuesday": "1",
        "State": "WA",
        "WorkArea": "340",
        "Saturday": "1"
    },
    {
        "City": "KIRKLAND",
        "Thursday": "0",
        "Open5": "0",
        "Sunday": "0",
        "Latitude": "47.7175251",
        "Monday": "0",
        "Friday": "0",
        "AddressLine2": "",
        "location": [
            "-122.1785681",
            "47.7175251"
        ],
        "AddressLine1": "13030 121ST WAY NE",
        "RecipientName": "STE 101 KIRKLAND FAMILY EYECARE",
        "Close2": "0",
        "Close3": "0",
        "Close0": "0",
        "Close1": "0",
        "Close6": "0",
        "Name": "Kirkland Family Eyecare",
        "Close4": "0",
        "Close5": "0",
        "Wednesday": "0",
        "Longitude": "-122.1785681",
        "PostalCode": "98034300826",
        "Open4": "0",
        "Open6": "0",
        "Open1": "0",
        "Open0": "0",
        "Open3": "0",
        "Open2": "0",
        "PSACSA": "301777",
        "Tuesday": "0",
        "State": "WA",
        "WorkArea": "335",
        "Saturday": "0"
    },
    {
        "City": "KIRKLAND",
        "Thursday": "0",
        "Open5": "0",
        "Sunday": "0",
        "Latitude": "47.70823",
        "Monday": "0",
        "Friday": "0",
        "AddressLine2": "",
        "location": [
            "-122.221487",
            "47.70823"
        ],
        "AddressLine1": "12018 89TH PL NE",
        "RecipientName": "",
        "Close2": "0",
        "Close3": "0",
        "Close0": "0",
        "Close1": "0",
        "Close6": "0",
        "Name": "12018 89th Pl NE",
        "Close4": "0",
        "Close5": "0",
        "Wednesday": "0",
        "Longitude": "-122.221487",
        "PostalCode": "98034263118",
        "Open4": "0",
        "Open6": "0",
        "Open1": "0",
        "Open0": "0",
        "Open3": "0",
        "Open2": "0",
        "PSACSA": "301777",
        "Tuesday": "0",
        "State": "WA",
        "WorkArea": "340",
        "Saturday": "0"
    },
    {
        "City": "KIRKLAND",
        "Thursday": "1",
        "Open5": "600",
        "Sunday": "0",
        "Latitude": "47.7139585",
        "Monday": "1",
        "Friday": "1",
        "AddressLine2": "",
        "location": [
            "-122.1816768",
            "47.7139585"
        ],
        "AddressLine1": "12707 120TH AVE NE",
        "RecipientName": "",
        "Close2": "1730",
        "Close3": "1730",
        "Close0": "0",
        "Close1": "1730",
        "Close6": "0",
        "Name": "12707 120th Ave NE",
        "Close4": "1730",
        "Close5": "1700",
        "Wednesday": "1",
        "Longitude": "-122.1816768",
        "PostalCode": "98034750099",
        "Open4": "600",
        "Open6": "0",
        "Open1": "600",
        "Open0": "0",
        "Open3": "600",
        "Open2": "600",
        "PSACSA": "301777",
        "Tuesday": "1",
        "State": "WA",
        "WorkArea": "335",
        "Saturday": "0"
    },
    {
        "City": "KIRKLAND",
        "Thursday": "1",
        "Open5": "800",
        "Sunday": "0",
        "Latitude": "47.7151822",
        "Monday": "1",
        "Friday": "1",
        "AddressLine2": "",
        "location": [
            "-122.184169",
            "47.7151822"
        ],
        "AddressLine1": "11800 NE 128TH ST",
        "RecipientName": "NORTHWEST VISION INSTITUTE #2",
        "Close2": "1700",
        "Close3": "1700",
        "Close0": "0",
        "Close1": "1700",
        "Close6": "0",
        "Name": "Northwest Vision Institute",
        "Close4": "1700",
        "Close5": "1700",
        "Wednesday": "1",
        "Longitude": "-122.184169",
        "PostalCode": "98034720899",
        "Open4": "800",
        "Open6": "0",
        "Open1": "800",
        "Open0": "0",
        "Open3": "800",
        "Open2": "800",
        "PSACSA": "301777",
        "Tuesday": "1",
        "State": "WA",
        "WorkArea": "335",
        "Saturday": "0"
    },
    {
        "City": "BOTHELL",
        "Thursday": "1",
        "Open5": "900",
        "Sunday": "0",
        "Latitude": "47.7562988",
        "Monday": "1",
        "Friday": "1",
        "AddressLine2": "APT 2212",
        "location": [
            "-122.2066194",
            "47.7562988"
        ],
        "AddressLine1": "9921 W RIVERSIDE DR",
        "RecipientName": "",
        "Close2": "1700",
        "Close3": "1700",
        "Close0": "0",
        "Close1": "1700",
        "Close6": "0",
        "Name": "9921 W Riverside Dr #2212",
        "Close4": "1700",
        "Close5": "1700",
        "Wednesday": "1",
        "Longitude": "-122.2066194",
        "PostalCode": "98011440262",
        "Open4": "900",
        "Open6": "0",
        "Open1": "900",
        "Open0": "0",
        "Open3": "900",
        "Open2": "900",
        "PSACSA": "301777",
        "Tuesday": "1",
        "State": "WA",
        "WorkArea": "335",
        "Saturday": "0"
    },
    {
        "City": "KIRKLAND",
        "Thursday": "1",
        "Open5": "0",
        "Sunday": "1",
        "Latitude": "47.7192092",
        "Monday": "1",
        "Friday": "1",
        "AddressLine2": "",
        "location": [
            "-122.2041786",
            "47.7192092"
        ],
        "AddressLine1": "10200 NE 132ND ST",
        "RecipientName": "",
        "Close2": "2359",
        "Close3": "2359",
        "Close0": "2359",
        "Close1": "2359",
        "Close6": "2359",
        "Name": "10200 NE 132nd St",
        "Close4": "2359",
        "Close5": "2359",
        "Wednesday": "1",
        "Longitude": "-122.2041786",
        "PostalCode": "98034283100",
        "Open4": "0",
        "Open6": "0",
        "Open1": "0",
        "Open0": "0",
        "Open3": "0",
        "Open2": "0",
        "PSACSA": "301777",
        "Tuesday": "1",
        "State": "WA",
        "WorkArea": "335",
        "Saturday": "1"
    },
    {
        "City": "KIRKLAND",
        "Thursday": "0",
        "Open5": "0",
        "Sunday": "0",
        "Latitude": "47.7161168",
        "Monday": "0",
        "Friday": "0",
        "AddressLine2": "STE 320",
        "location": [
            "-122.1765109",
            "47.7161168"
        ],
        "AddressLine1": "12333 NE 130TH LN",
        "RecipientName": "EASTSIDE CARDIOLOGY ASSOCIATES",
        "Close2": "0",
        "Close3": "0",
        "Close0": "0",
        "Close1": "0",
        "Close6": "0",
        "Name": "Eastside Cardiology Associates: Simnad Virginia I MD",
        "Close4": "0",
        "Close5": "0",
        "Wednesday": "0",
        "Longitude": "-122.1765109",
        "PostalCode": "98034746795",
        "Open4": "0",
        "Open6": "0",
        "Open1": "0",
        "Open0": "0",
        "Open3": "0",
        "Open2": "0",
        "PSACSA": "301777",
        "Tuesday": "0",
        "State": "WA",
        "WorkArea": "335",
        "Saturday": "0"
    },
    {
        "City": "BOTHELL",
        "Thursday": "0",
        "Open5": "0",
        "Sunday": "0",
        "Latitude": "47.7591943",
        "Monday": "0",
        "Friday": "0",
        "AddressLine2": "",
        "location": [
            "-122.2050753",
            "47.7591943"
        ],
        "AddressLine1": "10107 WOODINVILLE DR",
        "RecipientName": "THORN  FORD  DENTAL  LAB",
        "Close2": "0",
        "Close3": "0",
        "Close0": "0",
        "Close1": "0",
        "Close6": "0",
        "Name": "Thorn Ford Dental Lab",
        "Close4": "0",
        "Close5": "0",
        "Wednesday": "0",
        "Longitude": "-122.2050753",
        "PostalCode": "98011321107",
        "Open4": "0",
        "Open6": "0",
        "Open1": "0",
        "Open0": "0",
        "Open3": "0",
        "Open2": "0",
        "PSACSA": "301777",
        "Tuesday": "0",
        "State": "WA",
        "WorkArea": "335",
        "Saturday": "0"
    },
    {
        "City": "BOTHELL",
        "Thursday": "1",
        "Open5": "900",
        "Sunday": "0",
        "Latitude": "47.7431953",
        "Monday": "1",
        "Friday": "1",
        "AddressLine2": "STE B",
        "location": [
            "-122.1838388",
            "47.7431953"
        ],
        "AddressLine1": "11801 NE 160TH ST",
        "RecipientName": "STATE FARM MUTUAL AUTOMOBILE INSURA",
        "Close2": "1700",
        "Close3": "1700",
        "Close0": "0",
        "Close1": "1700",
        "Close6": "1700",
        "Name": "Kristina Frazier - State Farm Insurance Agent",
        "Close4": "1700",
        "Close5": "1700",
        "Wednesday": "1",
        "Longitude": "-122.1838388",
        "PostalCode": "98011410674",
        "Open4": "900",
        "Open6": "1000",
        "Open1": "1000",
        "Open0": "0",
        "Open3": "900",
        "Open2": "900",
        "PSACSA": "301777",
        "Tuesday": "1",
        "State": "WA",
        "WorkArea": "335",
        "Saturday": "1"
    },
    {
        "City": "KIRKLAND",
        "Thursday": "0",
        "Open5": "0",
        "Sunday": "0",
        "Latitude": "47.7095",
        "Monday": "0",
        "Friday": "0",
        "AddressLine2": "",
        "location": [
            "-122.2400877",
            "47.7095"
        ],
        "AddressLine1": "7771 NE 122ND LN",
        "RecipientName": "",
        "Close2": "0",
        "Close3": "0",
        "Close0": "0",
        "Close1": "0",
        "Close6": "0",
        "Name": "7771 NE 122nd Ln",
        "Close4": "0",
        "Close5": "0",
        "Wednesday": "0",
        "Longitude": "-122.2400877",
        "PostalCode": "98034243671",
        "Open4": "0",
        "Open6": "0",
        "Open1": "0",
        "Open0": "0",
        "Open3": "0",
        "Open2": "0",
        "PSACSA": "301777",
        "Tuesday": "0",
        "State": "WA",
        "WorkArea": "340",
        "Saturday": "0"
    },
    {
        "City": "KIRKLAND",
        "Thursday": "1",
        "Open5": "500",
        "Sunday": "1",
        "Latitude": "47.7324848",
        "Monday": "1",
        "Friday": "1",
        "AddressLine2": "",
        "location": [
            "-122.1740579",
            "47.7324848"
        ],
        "AddressLine1": "14444 124TH AVE NE",
        "RecipientName": "SAFEWAY - 00526",
        "Close2": "100",
        "Close3": "100",
        "Close0": "100",
        "Close1": "100",
        "Close6": "100",
        "Name": "Safeway",
        "Close4": "100",
        "Close5": "100",
        "Wednesday": "1",
        "Longitude": "-122.1740579",
        "PostalCode": "98034480144",
        "Open4": "500",
        "Open6": "500",
        "Open1": "500",
        "Open0": "500",
        "Open3": "500",
        "Open2": "500",
        "PSACSA": "301777",
        "Tuesday": "1",
        "State": "WA",
        "WorkArea": "335",
        "Saturday": "1"
    },
    {
        "City": "KIRKLAND",
        "Thursday": "1",
        "Open5": "1100",
        "Sunday": "1",
        "Latitude": "47.7303868",
        "Monday": "1",
        "Friday": "1",
        "AddressLine2": "",
        "location": [
            "-122.1734026",
            "47.7303868"
        ],
        "AddressLine1": "14326 124TH AVE NE",
        "RecipientName": "C/O SNOKING ICE ARENAS",
        "Close2": "2100",
        "Close3": "2100",
        "Close0": "2100",
        "Close1": "2100",
        "Close6": "1800",
        "Name": "Sno-King Ice Arena",
        "Close4": "2100",
        "Close5": "1700",
        "Wednesday": "1",
        "Longitude": "-122.1734026",
        "PostalCode": "98034141426",
        "Open4": "1100",
        "Open6": "800",
        "Open1": "1100",
        "Open0": "900",
        "Open3": "1100",
        "Open2": "1100",
        "PSACSA": "301777",
        "Tuesday": "1",
        "State": "WA",
        "WorkArea": "335",
        "Saturday": "1"
    },
    {
        "City": "KIRKLAND",
        "Thursday": "1",
        "Open5": "700",
        "Sunday": "1",
        "Latitude": "47.7320756",
        "Monday": "1",
        "Friday": "1",
        "AddressLine2": "",
        "location": [
            "-122.174049",
            "47.7320756"
        ],
        "AddressLine1": "14442 124TH AVE NE",
        "RecipientName": "BARTELL DRUG #18",
        "Close2": "2200",
        "Close3": "2200",
        "Close0": "2000",
        "Close1": "2200",
        "Close6": "2000",
        "Name": "Bartell Drugs Kingsgate",
        "Close4": "2200",
        "Close5": "2200",
        "Wednesday": "1",
        "Longitude": "-122.174049",
        "PostalCode": "98034480142",
        "Open4": "700",
        "Open6": "800",
        "Open1": "700",
        "Open0": "900",
        "Open3": "700",
        "Open2": "700",
        "PSACSA": "301777",
        "Tuesday": "1",
        "State": "WA",
        "WorkArea": "335",
        "Saturday": "1"
    },
    {
        "City": "KIRKLAND",
        "Thursday": "0",
        "Open5": "0",
        "Sunday": "0",
        "Latitude": "47.73043",
        "Monday": "0",
        "Friday": "0",
        "AddressLine2": "",
        "location": [
            "-122.204907",
            "47.73043"
        ],
        "AddressLine1": "14317 102ND AVE NE",
        "RecipientName": "",
        "Close2": "0",
        "Close3": "0",
        "Close0": "0",
        "Close1": "0",
        "Close6": "0",
        "Name": "14317 102nd Ave NE",
        "Close4": "0",
        "Close5": "0",
        "Wednesday": "0",
        "Longitude": "-122.204907",
        "PostalCode": "98034940417",
        "Open4": "0",
        "Open6": "0",
        "Open1": "0",
        "Open0": "0",
        "Open3": "0",
        "Open2": "0",
        "PSACSA": "301777",
        "Tuesday": "0",
        "State": "WA",
        "WorkArea": "340",
        "Saturday": "0"
    },
    {
        "City": "KIRKLAND",
        "Thursday": "1",
        "Open5": "800",
        "Sunday": "0",
        "Latitude": "47.713897",
        "Monday": "1",
        "Friday": "1",
        "AddressLine2": "",
        "location": [
            "-122.1831234",
            "47.713897"
        ],
        "AddressLine1": "12710 TOTEM LAKE BLVD NE",
        "RecipientName": "LAKESHORE CLINIC",
        "Close2": "1900",
        "Close3": "1900",
        "Close0": "0",
        "Close1": "1900",
        "Close6": "0",
        "Name": "EvergreenHealth Primary Care - Lakeshore Totem Lake",
        "Close4": "1900",
        "Close5": "1700",
        "Wednesday": "1",
        "Longitude": "-122.1831234",
        "PostalCode": "98034290710",
        "Open4": "800",
        "Open6": "0",
        "Open1": "800",
        "Open0": "0",
        "Open3": "800",
        "Open2": "800",
        "PSACSA": "301777",
        "Tuesday": "1",
        "State": "WA",
        "WorkArea": "335",
        "Saturday": "0"
    },
    {
        "City": "KIRKLAND",
        "Thursday": "0",
        "Open5": "0",
        "Sunday": "0",
        "Latitude": "47.735697",
        "Monday": "0",
        "Friday": "0",
        "AddressLine2": "",
        "location": [
            "-122.18619",
            "47.735697"
        ],
        "AddressLine1": "14827 116TH PL NE",
        "RecipientName": "",
        "Close2": "0",
        "Close3": "0",
        "Close0": "0",
        "Close1": "0",
        "Close6": "0",
        "Name": "14827 116th Pl NE",
        "Close4": "0",
        "Close5": "0",
        "Wednesday": "0",
        "Longitude": "-122.18619",
        "PostalCode": "98034463827",
        "Open4": "0",
        "Open6": "0",
        "Open1": "0",
        "Open0": "0",
        "Open3": "0",
        "Open2": "0",
        "PSACSA": "301777",
        "Tuesday": "0",
        "State": "WA",
        "WorkArea": "335",
        "Saturday": "0"
    },
    {
        "City": "BOTHELL",
        "Thursday": "0",
        "Open5": "0",
        "Sunday": "0",
        "Latitude": "47.7467029",
        "Monday": "0",
        "Friday": "0",
        "AddressLine2": "",
        "location": [
            "-122.1893656",
            "47.7467029"
        ],
        "AddressLine1": "16300 112TH AVE NE",
        "RecipientName": "CEDAR PARK CHRISTIAN",
        "Close2": "0",
        "Close3": "0",
        "Close0": "0",
        "Close1": "0",
        "Close6": "0",
        "Name": "Cedar Park Christian School",
        "Close4": "0",
        "Close5": "0",
        "Wednesday": "0",
        "Longitude": "-122.1893656",
        "PostalCode": "98011153500",
        "Open4": "0",
        "Open6": "0",
        "Open1": "0",
        "Open0": "0",
        "Open3": "0",
        "Open2": "0",
        "PSACSA": "301777",
        "Tuesday": "0",
        "State": "WA",
        "WorkArea": "335",
        "Saturday": "0"
    },
    {
        "City": "KIRKLAND",
        "Thursday": "1",
        "Open5": "0",
        "Sunday": "1",
        "Latitude": "47.7156811",
        "Monday": "1",
        "Friday": "1",
        "AddressLine2": "STE 420",
        "location": [
            "-122.1781611",
            "47.7156811"
        ],
        "AddressLine1": "12303 NE 130TH LN",
        "RecipientName": "EVERGREEN HOSPITAL",
        "Close2": "2359",
        "Close3": "2359",
        "Close0": "2359",
        "Close1": "2359",
        "Close6": "2359",
        "Name": "Evergreen Hospital Medical Center",
        "Close4": "2359",
        "Close5": "2359",
        "Wednesday": "1",
        "Longitude": "-122.1781611",
        "PostalCode": "98034304220",
        "Open4": "0",
        "Open6": "0",
        "Open1": "0",
        "Open0": "0",
        "Open3": "0",
        "Open2": "0",
        "PSACSA": "301777",
        "Tuesday": "1",
        "State": "WA",
        "WorkArea": "335",
        "Saturday": "1"
    },
    {
        "City": "KIRKLAND",
        "Thursday": "0",
        "Open5": "0",
        "Sunday": "0",
        "Latitude": "47.7225468",
        "Monday": "0",
        "Friday": "0",
        "AddressLine2": "",
        "location": [
            "-122.2002075",
            "47.7225468"
        ],
        "AddressLine1": "10506 NE 136TH PL",
        "RecipientName": "",
        "Close2": "0",
        "Close3": "0",
        "Close0": "0",
        "Close1": "0",
        "Close6": "0",
        "Name": "10506 NE 136th Pl",
        "Close4": "0",
        "Close5": "0",
        "Wednesday": "0",
        "Longitude": "-122.2002075",
        "PostalCode": "98034202106",
        "Open4": "0",
        "Open6": "0",
        "Open1": "0",
        "Open0": "0",
        "Open3": "0",
        "Open2": "0",
        "PSACSA": "301777",
        "Tuesday": "0",
        "State": "WA",
        "WorkArea": "340",
        "Saturday": "0"
    },
    {
        "City": "WOODINVILLE",
        "Thursday": "1",
        "Open5": "800",
        "Sunday": "0",
        "Latitude": "47.7690164",
        "Monday": "1",
        "Friday": "1",
        "AddressLine2": "",
        "location": [
            "-122.1477459",
            "47.7690164"
        ],
        "AddressLine1": "19501 144TH AVE NE",
        "RecipientName": "STE A900",
        "Close2": "1630",
        "Close3": "1630",
        "Close0": "0",
        "Close1": "1630",
        "Close6": "0",
        "Name": "19501 144th Ave NE a900",
        "Close4": "1630",
        "Close5": "1630",
        "Wednesday": "1",
        "Longitude": "-122.1477459",
        "PostalCode": "98072440110",
        "Open4": "800",
        "Open6": "0",
        "Open1": "800",
        "Open0": "0",
        "Open3": "800",
        "Open2": "800",
        "PSACSA": "301777",
        "Tuesday": "1",
        "State": "WA",
        "WorkArea": "353",
        "Saturday": "0"
    },
    {
        "City": "KENMORE",
        "Thursday": "0",
        "Open5": "0",
        "Sunday": "0",
        "Latitude": "47.775714",
        "Monday": "0",
        "Friday": "0",
        "AddressLine2": "",
        "location": [
            "-122.236722",
            "47.775714"
        ],
        "AddressLine1": "20307 77TH AVE NE",
        "RecipientName": "",
        "Close2": "0",
        "Close3": "0",
        "Close0": "0",
        "Close1": "0",
        "Close6": "0",
        "Name": "20307 77th Ave NE",
        "Close4": "0",
        "Close5": "0",
        "Wednesday": "0",
        "Longitude": "-122.236722",
        "PostalCode": "98028202007",
        "Open4": "0",
        "Open6": "0",
        "Open1": "0",
        "Open0": "0",
        "Open3": "0",
        "Open2": "0",
        "PSACSA": "301777",
        "Tuesday": "0",
        "State": "WA",
        "WorkArea": "817",
        "Saturday": "0"
    },
    {
        "City": "KENMORE",
        "Thursday": "0",
        "Open5": "0",
        "Sunday": "0",
        "Latitude": "47.762912",
        "Monday": "0",
        "Friday": "0",
        "AddressLine2": "",
        "location": [
            "-122.260519",
            "47.762912"
        ],
        "AddressLine1": "6180 NE 185TH ST",
        "RecipientName": "",
        "Close2": "0",
        "Close3": "0",
        "Close0": "0",
        "Close1": "0",
        "Close6": "0",
        "Name": "6180 NE 185th St",
        "Close4": "0",
        "Close5": "0",
        "Wednesday": "0",
        "Longitude": "-122.260519",
        "PostalCode": "98028890980",
        "Open4": "0",
        "Open6": "0",
        "Open1": "0",
        "Open0": "0",
        "Open3": "0",
        "Open2": "0",
        "PSACSA": "301777",
        "Tuesday": "0",
        "State": "WA",
        "WorkArea": "817",
        "Saturday": "0"
    },
    {
        "City": "BOTHELL",
        "Thursday": "0",
        "Open5": "0",
        "Sunday": "0",
        "Latitude": "47.7403522",
        "Monday": "0",
        "Friday": "0",
        "AddressLine2": "",
        "location": [
            "-122.2035745",
            "47.7403522"
        ],
        "AddressLine1": "10309 NE 155TH PL",
        "RecipientName": "",
        "Close2": "0",
        "Close3": "0",
        "Close0": "0",
        "Close1": "0",
        "Close6": "0",
        "Name": "10309 NE 155th Pl",
        "Close4": "0",
        "Close5": "0",
        "Wednesday": "0",
        "Longitude": "-122.2035745",
        "PostalCode": "98011720109",
        "Open4": "0",
        "Open6": "0",
        "Open1": "0",
        "Open0": "0",
        "Open3": "0",
        "Open2": "0",
        "PSACSA": "301777",
        "Tuesday": "0",
        "State": "WA",
        "WorkArea": "335",
        "Saturday": "0"
    },
    {
        "City": "KIRKLAND",
        "Thursday": "0",
        "Open5": "0",
        "Sunday": "0",
        "Latitude": "47.7209484",
        "Monday": "0",
        "Friday": "0",
        "AddressLine2": "",
        "location": [
            "-122.2028957",
            "47.7209484"
        ],
        "AddressLine1": "13313 103RD LN NE",
        "RecipientName": "",
        "Close2": "0",
        "Close3": "0",
        "Close0": "0",
        "Close1": "0",
        "Close6": "0",
        "Name": "13313 103rd Ln NE",
        "Close4": "0",
        "Close5": "0",
        "Wednesday": "0",
        "Longitude": "-122.2028957",
        "PostalCode": "98034208899",
        "Open4": "0",
        "Open6": "0",
        "Open1": "0",
        "Open0": "0",
        "Open3": "0",
        "Open2": "0",
        "PSACSA": "301777",
        "Tuesday": "0",
        "State": "WA",
        "WorkArea": "340",
        "Saturday": "0"
    },
    {
        "City": "BOTHELL",
        "Thursday": "0",
        "Open5": "0",
        "Sunday": "0",
        "Latitude": "47.75688",
        "Monday": "0",
        "Friday": "0",
        "AddressLine2": "",
        "location": [
            "-122.222748",
            "47.75688"
        ],
        "AddressLine1": "8829 NE 178TH ST",
        "RecipientName": "",
        "Close2": "0",
        "Close3": "0",
        "Close0": "0",
        "Close1": "0",
        "Close6": "0",
        "Name": "8829 NE 178th St",
        "Close4": "0",
        "Close5": "0",
        "Wednesday": "0",
        "Longitude": "-122.222748",
        "PostalCode": "98011367129",
        "Open4": "0",
        "Open6": "0",
        "Open1": "0",
        "Open0": "0",
        "Open3": "0",
        "Open2": "0",
        "PSACSA": "301777",
        "Tuesday": "0",
        "State": "WA",
        "WorkArea": "346",
        "Saturday": "0"
    },
    {
        "City": "WOODINVILLE",
        "Thursday": "1",
        "Open5": "800",
        "Sunday": "0",
        "Latitude": "47.74441",
        "Monday": "1",
        "Friday": "1",
        "AddressLine2": "",
        "location": [
            "-122.16056",
            "47.74441"
        ],
        "AddressLine1": "16111 WOODINVILLE REDMOND RD NE",
        "RecipientName": "WINSOME TRADING, INC.",
        "Close2": "1600",
        "Close3": "1600",
        "Close0": "0",
        "Close1": "1600",
        "Close6": "0",
        "Name": "Winsome Trading Inc",
        "Close4": "1600",
        "Close5": "1600",
        "Wednesday": "1",
        "Longitude": "-122.16056",
        "PostalCode": "98072904611",
        "Open4": "800",
        "Open6": "0",
        "Open1": "800",
        "Open0": "0",
        "Open3": "800",
        "Open2": "800",
        "PSACSA": "301777",
        "Tuesday": "1",
        "State": "WA",
        "WorkArea": "403",
        "Saturday": "0"
    },
    {
        "City": "BOTHELL",
        "Thursday": "1",
        "Open5": "800",
        "Sunday": "0",
        "Latitude": "47.769761",
        "Monday": "1",
        "Friday": "1",
        "AddressLine2": "",
        "location": [
            "-122.1841576",
            "47.769761"
        ],
        "AddressLine1": "11724 NE 195TH ST",
        "RecipientName": "VERTAFORE INC",
        "Close2": "1700",
        "Close3": "1700",
        "Close0": "0",
        "Close1": "1700",
        "Close6": "0",
        "Name": "Vertafore Inc",
        "Close4": "1700",
        "Close5": "1700",
        "Wednesday": "1",
        "Longitude": "-122.1841576",
        "PostalCode": "98011314524",
        "Open4": "800",
        "Open6": "0",
        "Open1": "800",
        "Open0": "0",
        "Open3": "800",
        "Open2": "800",
        "PSACSA": "301777",
        "Tuesday": "1",
        "State": "WA",
        "WorkArea": "346",
        "Saturday": "0"
    },
    {
        "City": "KIRKLAND",
        "Thursday": "1",
        "Open5": "800",
        "Sunday": "1",
        "Latitude": "47.717004",
        "Monday": "1",
        "Friday": "1",
        "AddressLine2": "",
        "location": [
            "-122.185578",
            "47.717004"
        ],
        "AddressLine1": "13000 TOTEM LAKE BLVD NE",
        "RecipientName": "AEGIS OF KIRKLAND-AGE",
        "Close2": "2000",
        "Close3": "2000",
        "Close0": "2000",
        "Close1": "2000",
        "Close6": "2000",
        "Name": "Aegis of Kirkland",
        "Close4": "2000",
        "Close5": "2000",
        "Wednesday": "1",
        "Longitude": "-122.185578",
        "PostalCode": "98034298299",
        "Open4": "800",
        "Open6": "800",
        "Open1": "800",
        "Open0": "800",
        "Open3": "800",
        "Open2": "800",
        "PSACSA": "301777",
        "Tuesday": "1",
        "State": "WA",
        "WorkArea": "335",
        "Saturday": "1"
    },
    {
        "City": "KENMORE",
        "Thursday": "0",
        "Open5": "0",
        "Sunday": "0",
        "Latitude": "47.768091",
        "Monday": "0",
        "Friday": "0",
        "AddressLine2": "",
        "location": [
            "-122.237313",
            "47.768091"
        ],
        "AddressLine1": "19306 76TH PL NE",
        "RecipientName": "",
        "Close2": "0",
        "Close3": "0",
        "Close0": "0",
        "Close1": "0",
        "Close6": "0",
        "Name": "19306 76th Pl NE",
        "Close4": "0",
        "Close5": "0",
        "Wednesday": "0",
        "Longitude": "-122.237313",
        "PostalCode": "98028269706",
        "Open4": "0",
        "Open6": "0",
        "Open1": "0",
        "Open0": "0",
        "Open3": "0",
        "Open2": "0",
        "PSACSA": "301777",
        "Tuesday": "0",
        "State": "WA",
        "WorkArea": "817",
        "Saturday": "0"
    },
    {
        "City": "BOTHELL",
        "Thursday": "1",
        "Open5": "800",
        "Sunday": "0",
        "Latitude": "47.733609",
        "Monday": "1",
        "Friday": "1",
        "AddressLine2": "",
        "location": [
            "-122.196447",
            "47.733609"
        ],
        "AddressLine1": "10808 NE 145TH ST",
        "RecipientName": "NORTHSHORE PUBLIC HEALTH CENTER",
        "Close2": "1800",
        "Close3": "1800",
        "Close0": "0",
        "Close1": "1800",
        "Close6": "0",
        "Name": "Northshore Public Health Center",
        "Close4": "1800",
        "Close5": "1700",
        "Wednesday": "1",
        "Longitude": "-122.196447",
        "PostalCode": "98011522699",
        "Open4": "800",
        "Open6": "0",
        "Open1": "800",
        "Open0": "0",
        "Open3": "800",
        "Open2": "800",
        "PSACSA": "301777",
        "Tuesday": "1",
        "State": "WA",
        "WorkArea": "335",
        "Saturday": "0"
    },
    {
        "City": "KIRKLAND",
        "Thursday": "0",
        "Open5": "0",
        "Sunday": "0",
        "Latitude": "47.7185336",
        "Monday": "0",
        "Friday": "0",
        "AddressLine2": "APT B103",
        "location": [
            "-122.1904131",
            "47.7185336"
        ],
        "AddressLine1": "11236 NE 132ND ST",
        "RecipientName": "",
        "Close2": "0",
        "Close3": "0",
        "Close0": "0",
        "Close1": "0",
        "Close6": "0",
        "Name": "11236 NE 132nd St b103",
        "Close4": "0",
        "Close5": "0",
        "Wednesday": "0",
        "Longitude": "-122.1904131",
        "PostalCode": "98034470823",
        "Open4": "0",
        "Open6": "0",
        "Open1": "0",
        "Open0": "0",
        "Open3": "0",
        "Open2": "0",
        "PSACSA": "301777",
        "Tuesday": "0",
        "State": "WA",
        "WorkArea": "340",
        "Saturday": "0"
    },
    {
        "City": "KIRKLAND",
        "Thursday": "1",
        "Open5": "800",
        "Sunday": "0",
        "Latitude": "47.733253",
        "Monday": "1",
        "Friday": "1",
        "AddressLine2": "",
        "location": [
            "-122.192502",
            "47.733253"
        ],
        "AddressLine1": "11134 NE 145TH ST",
        "RecipientName": "",
        "Close2": "1800",
        "Close3": "1800",
        "Close0": "0",
        "Close1": "1800",
        "Close6": "0",
        "Name": "11134 NE 145th St",
        "Close4": "1800",
        "Close5": "1700",
        "Wednesday": "1",
        "Longitude": "-122.192502",
        "PostalCode": "98034441334",
        "Open4": "800",
        "Open6": "0",
        "Open1": "800",
        "Open0": "0",
        "Open3": "800",
        "Open2": "800",
        "PSACSA": "301777",
        "Tuesday": "1",
        "State": "WA",
        "WorkArea": "335",
        "Saturday": "0"
    },
    {
        "City": "WOODINVILLE",
        "Thursday": "1",
        "Open5": "0",
        "Sunday": "1",
        "Latitude": "47.736868",
        "Monday": "1",
        "Friday": "1",
        "AddressLine2": "",
        "location": [
            "-122.151515",
            "47.736868"
        ],
        "AddressLine1": "15000 WOODINVILLE REDMOND RD NE",
        "RecipientName": "SUMMIT IMAGING",
        "Close2": "2359",
        "Close3": "2359",
        "Close0": "2359",
        "Close1": "2359",
        "Close6": "2359",
        "Name": "Summit Imaging",
        "Close4": "2359",
        "Close5": "2359",
        "Wednesday": "1",
        "Longitude": "-122.151515",
        "PostalCode": "98072699999",
        "Open4": "0",
        "Open6": "0",
        "Open1": "0",
        "Open0": "0",
        "Open3": "0",
        "Open2": "0",
        "PSACSA": "301777",
        "Tuesday": "1",
        "State": "WA",
        "WorkArea": "403",
        "Saturday": "1"
    },
    {
        "City": "WOODINVILLE",
        "Thursday": "1",
        "Open5": "1000",
        "Sunday": "1",
        "Latitude": "47.7546728",
        "Monday": "1",
        "Friday": "1",
        "AddressLine2": "",
        "location": [
            "-122.1574786",
            "47.7546728"
        ],
        "AddressLine1": "13620 NE 175TH ST",
        "RecipientName": "STE 114 HANNA ANDERSON",
        "Close2": "1800",
        "Close3": "1800",
        "Close0": "1700",
        "Close1": "1800",
        "Close6": "1800",
        "Name": "Hanna Andersson Outlet Store",
        "Close4": "1800",
        "Close5": "1800",
        "Wednesday": "1",
        "Longitude": "-122.1574786",
        "PostalCode": "98072681639",
        "Open4": "1000",
        "Open6": "1000",
        "Open1": "1000",
        "Open0": "1100",
        "Open3": "1000",
        "Open2": "1000",
        "PSACSA": "301777",
        "Tuesday": "1",
        "State": "WA",
        "WorkArea": "403",
        "Saturday": "1"
    },
    {
        "City": "BOTHELL",
        "Thursday": "0",
        "Open5": "0",
        "Sunday": "0",
        "Latitude": "47.772637",
        "Monday": "0",
        "Friday": "0",
        "AddressLine2": "",
        "location": [
            "-122.212669",
            "47.772637"
        ],
        "AddressLine1": "9535 NE 200TH ST",
        "RecipientName": "",
        "Close2": "0",
        "Close3": "0",
        "Close0": "0",
        "Close1": "0",
        "Close6": "0",
        "Name": "9535 NE 200th St",
        "Close4": "0",
        "Close5": "0",
        "Wednesday": "0",
        "Longitude": "-122.212669",
        "PostalCode": "98011233035",
        "Open4": "0",
        "Open6": "0",
        "Open1": "0",
        "Open0": "0",
        "Open3": "0",
        "Open2": "0",
        "PSACSA": "301777",
        "Tuesday": "0",
        "State": "WA",
        "WorkArea": "346",
        "Saturday": "0"
    },
    {
        "City": "WOODINVILLE",
        "Thursday": "1",
        "Open5": "1400",
        "Sunday": "0",
        "Latitude": "47.7568673",
        "Monday": "1",
        "Friday": "1",
        "AddressLine2": "STE D",
        "location": [
            "-122.1678491",
            "47.7568673"
        ],
        "AddressLine1": "12826 NE 178TH ST",
        "RecipientName": "",
        "Close2": "2000",
        "Close3": "2000",
        "Close0": "0",
        "Close1": "2000",
        "Close6": "2100",
        "Name": "12826 NE 178th St d",
        "Close4": "2000",
        "Close5": "2100",
        "Wednesday": "1",
        "Longitude": "-122.1678491",
        "PostalCode": "98072873776",
        "Open4": "1500",
        "Open6": "1400",
        "Open1": "1500",
        "Open0": "0",
        "Open3": "1500",
        "Open2": "1500",
        "PSACSA": "301777",
        "Tuesday": "1",
        "State": "WA",
        "WorkArea": "371",
        "Saturday": "1"
    },
    {
        "City": "KIRKLAND",
        "Thursday": "0",
        "Open5": "0",
        "Sunday": "0",
        "Latitude": "47.726415",
        "Monday": "0",
        "Friday": "0",
        "AddressLine2": "",
        "location": [
            "-122.237833",
            "47.726415"
        ],
        "AddressLine1": "7720 NE 140TH ST",
        "RecipientName": "",
        "Close2": "0",
        "Close3": "0",
        "Close0": "0",
        "Close1": "0",
        "Close6": "0",
        "Name": "7720 NE 140th St",
        "Close4": "0",
        "Close5": "0",
        "Wednesday": "0",
        "Longitude": "-122.237833",
        "PostalCode": "98034536020",
        "Open4": "0",
        "Open6": "0",
        "Open1": "0",
        "Open0": "0",
        "Open3": "0",
        "Open2": "0",
        "PSACSA": "301777",
        "Tuesday": "0",
        "State": "WA",
        "WorkArea": "340",
        "Saturday": "0"
    },
    {
        "City": "KIRKLAND",
        "Thursday": "0",
        "Open5": "0",
        "Sunday": "0",
        "Latitude": "47.7207094",
        "Monday": "0",
        "Friday": "0",
        "AddressLine2": "APT F102",
        "location": [
            "-122.1916619",
            "47.7207094"
        ],
        "AddressLine1": "11400 NE 132ND ST",
        "RecipientName": "",
        "Close2": "0",
        "Close3": "0",
        "Close0": "0",
        "Close1": "0",
        "Close6": "0",
        "Name": "11400 NE 132nd St f102",
        "Close4": "0",
        "Close5": "0",
        "Wednesday": "0",
        "Longitude": "-122.1916619",
        "PostalCode": "98034475662",
        "Open4": "0",
        "Open6": "0",
        "Open1": "0",
        "Open0": "0",
        "Open3": "0",
        "Open2": "0",
        "PSACSA": "301777",
        "Tuesday": "0",
        "State": "WA",
        "WorkArea": "340",
        "Saturday": "0"
    },
    {
        "City": "WOODINVILLE",
        "Thursday": "1",
        "Open5": "900",
        "Sunday": "1",
        "Latitude": "47.7535624",
        "Monday": "1",
        "Friday": "1",
        "AddressLine2": "",
        "location": [
            "-122.1568428",
            "47.7535624"
        ],
        "AddressLine1": "13625 NE 175TH ST",
        "RecipientName": "MOLBAKS",
        "Close2": "1800",
        "Close3": "1800",
        "Close0": "1800",
        "Close1": "1800",
        "Close6": "1800",
        "Name": "Molbak's Garden + Home",
        "Close4": "1800",
        "Close5": "1800",
        "Wednesday": "1",
        "Longitude": "-122.1568428",
        "PostalCode": "98072851025",
        "Open4": "900",
        "Open6": "900",
        "Open1": "900",
        "Open0": "900",
        "Open3": "900",
        "Open2": "900",
        "PSACSA": "301777",
        "Tuesday": "1",
        "State": "WA",
        "WorkArea": "403",
        "Saturday": "1"
    },
    {
        "City": "KIRKLAND",
        "Thursday": "1",
        "Open5": "700",
        "Sunday": "1",
        "Latitude": "47.729431",
        "Monday": "1",
        "Friday": "1",
        "AddressLine2": "",
        "location": [
            "-122.2432555",
            "47.729431"
        ],
        "AddressLine1": "14130 JUANITA DR NE",
        "RecipientName": "BARTELL DRUG #28",
        "Close2": "2200",
        "Close3": "2200",
        "Close0": "1900",
        "Close1": "2200",
        "Close6": "1900",
        "Name": "Bartell Drugs Inglewood",
        "Close4": "2200",
        "Close5": "2200",
        "Wednesday": "1",
        "Longitude": "-122.2432555",
        "PostalCode": "98034012799",
        "Open4": "700",
        "Open6": "800",
        "Open1": "700",
        "Open0": "1000",
        "Open3": "700",
        "Open2": "700",
        "PSACSA": "301777",
        "Tuesday": "1",
        "State": "WA",
        "WorkArea": "340",
        "Saturday": "1"
    },
    {
        "City": "KIRKLAND",
        "Thursday": "1",
        "Open5": "700",
        "Sunday": "1",
        "Latitude": "47.729431",
        "Monday": "1",
        "Friday": "1",
        "AddressLine2": "STE 107",
        "location": [
            "-122.2432555",
            "47.729431"
        ],
        "AddressLine1": "14130 JUANITA DR NE",
        "RecipientName": "BARTELL - INGLEWOOD #28",
        "Close2": "2200",
        "Close3": "2200",
        "Close0": "1900",
        "Close1": "2200",
        "Close6": "1900",
        "Name": "Bartell Drugs Inglewood",
        "Close4": "2200",
        "Close5": "2200",
        "Wednesday": "1",
        "Longitude": "-122.2432555",
        "PostalCode": "98034012732",
        "Open4": "700",
        "Open6": "800",
        "Open1": "700",
        "Open0": "1000",
        "Open3": "700",
        "Open2": "700",
        "PSACSA": "301777",
        "Tuesday": "1",
        "State": "WA",
        "WorkArea": "340",
        "Saturday": "1"
    },
    {
        "City": "WOODINVILLE",
        "Thursday": "1",
        "Open5": "700",
        "Sunday": "1",
        "Latitude": "47.75598",
        "Monday": "1",
        "Friday": "1",
        "AddressLine2": "",
        "location": [
            "-122.167287",
            "47.75598"
        ],
        "AddressLine1": "17705 130TH AVE NE",
        "RecipientName": "MCLENDON HARDWARE",
        "Close2": "2000",
        "Close3": "2000",
        "Close0": "2000",
        "Close1": "2000",
        "Close6": "2000",
        "Name": "McLendon Hardware",
        "Close4": "2000",
        "Close5": "2000",
        "Wednesday": "1",
        "Longitude": "-122.167287",
        "PostalCode": "98072871705",
        "Open4": "700",
        "Open6": "700",
        "Open1": "700",
        "Open0": "800",
        "Open3": "700",
        "Open2": "700",
        "PSACSA": "301777",
        "Tuesday": "1",
        "State": "WA",
        "WorkArea": "371",
        "Saturday": "1"
    },
    {
        "City": "WOODINVILLE",
        "Thursday": "0",
        "Open5": "0",
        "Sunday": "0",
        "Latitude": "47.7380095",
        "Monday": "0",
        "Friday": "0",
        "AddressLine2": "",
        "location": [
            "-122.1534176",
            "47.7380095"
        ],
        "AddressLine1": "15100 WOODINVILLE REDMOND RD NE",
        "RecipientName": "NORTHWEST WOODWORKS",
        "Close2": "0",
        "Close3": "0",
        "Close0": "0",
        "Close1": "0",
        "Close6": "0",
        "Name": "Northwest Woodworks",
        "Close4": "0",
        "Close5": "0",
        "Wednesday": "0",
        "Longitude": "-122.1534176",
        "PostalCode": "98072454099",
        "Open4": "0",
        "Open6": "0",
        "Open1": "0",
        "Open0": "0",
        "Open3": "0",
        "Open2": "0",
        "PSACSA": "301777",
        "Tuesday": "0",
        "State": "WA",
        "WorkArea": "403",
        "Saturday": "0"
    },
    {
        "City": "KIRKLAND",
        "Thursday": "1",
        "Open5": "800",
        "Sunday": "1",
        "Latitude": "47.7194886",
        "Monday": "1",
        "Friday": "1",
        "AddressLine2": "",
        "location": [
            "-122.2099239",
            "47.7194886"
        ],
        "AddressLine1": "9820 NE 132ND ST",
        "RecipientName": "RITE AID #5193",
        "Close2": "2200",
        "Close3": "2200",
        "Close0": "2200",
        "Close1": "2200",
        "Close6": "2200",
        "Name": "Rite Aid",
        "Close4": "2200",
        "Close5": "2200",
        "Wednesday": "1",
        "Longitude": "-122.2099239",
        "PostalCode": "98034192720",
        "Open4": "800",
        "Open6": "800",
        "Open1": "800",
        "Open0": "800",
        "Open3": "800",
        "Open2": "800",
        "PSACSA": "301777",
        "Tuesday": "1",
        "State": "WA",
        "WorkArea": "340",
        "Saturday": "1"
    },
    {
        "City": "KENMORE",
        "Thursday": "1",
        "Open5": "900",
        "Sunday": "0",
        "Latitude": "47.771164",
        "Monday": "1",
        "Friday": "1",
        "AddressLine2": "",
        "location": [
            "-122.2579386",
            "47.771164"
        ],
        "AddressLine1": "6248 NE 196TH ST",
        "RecipientName": "---",
        "Close2": "1700",
        "Close3": "1700",
        "Close0": "0",
        "Close1": "1700",
        "Close6": "0",
        "Name": "6248 NE 196th St",
        "Close4": "1700",
        "Close5": "1700",
        "Wednesday": "1",
        "Longitude": "-122.2579386",
        "PostalCode": "98028330548",
        "Open4": "900",
        "Open6": "0",
        "Open1": "900",
        "Open0": "0",
        "Open3": "900",
        "Open2": "900",
        "PSACSA": "301777",
        "Tuesday": "1",
        "State": "WA",
        "WorkArea": "817",
        "Saturday": "0"
    },
    {
        "City": "WOODINVILLE",
        "Thursday": "1",
        "Open5": "930",
        "Sunday": "1",
        "Latitude": "47.7579807",
        "Monday": "1",
        "Friday": "1",
        "AddressLine2": "",
        "location": [
            "-122.1564239",
            "47.7579807"
        ],
        "AddressLine1": "18027 GARDEN WAY NE",
        "RecipientName": "PARTY CITY #471",
        "Close2": "2030",
        "Close3": "2030",
        "Close0": "1800",
        "Close1": "2030",
        "Close6": "2030",
        "Name": "Party City",
        "Close4": "2100",
        "Close5": "2100",
        "Wednesday": "1",
        "Longitude": "-122.1564239",
        "PostalCode": "98072357227",
        "Open4": "930",
        "Open6": "830",
        "Open1": "930",
        "Open0": "1000",
        "Open3": "930",
        "Open2": "930",
        "PSACSA": "301777",
        "Tuesday": "1",
        "State": "WA",
        "WorkArea": "403",
        "Saturday": "1"
    },
    {
        "City": "WOODINVILLE",
        "Thursday": "1",
        "Open5": "900",
        "Sunday": "0",
        "Latitude": "47.7621556",
        "Monday": "1",
        "Friday": "1",
        "AddressLine2": "",
        "location": [
            "-122.1502756",
            "47.7621556"
        ],
        "AddressLine1": "18538 142ND AVE NE",
        "RecipientName": "JD STELLAR LLC",
        "Close2": "1700",
        "Close3": "1700",
        "Close0": "0",
        "Close1": "1700",
        "Close6": "0",
        "Name": "JD STELLAR LLC",
        "Close4": "1700",
        "Close5": "1700",
        "Wednesday": "1",
        "Longitude": "-122.1502756",
        "PostalCode": "98072852038",
        "Open4": "900",
        "Open6": "0",
        "Open1": "900",
        "Open0": "0",
        "Open3": "900",
        "Open2": "900",
        "PSACSA": "301777",
        "Tuesday": "1",
        "State": "WA",
        "WorkArea": "353",
        "Saturday": "0"
    },
    {
        "City": "BOTHELL",
        "Thursday": "1",
        "Open5": "700",
        "Sunday": "0",
        "Latitude": "47.7612044",
        "Monday": "1",
        "Friday": "1",
        "AddressLine2": "STE A",
        "location": [
            "-122.2037611",
            "47.7612044"
        ],
        "AddressLine1": "18404 102ND AVE NE",
        "RecipientName": "QUALITY CARE PHYSICAL THERAPY",
        "Close2": "1900",
        "Close3": "1900",
        "Close0": "0",
        "Close1": "1900",
        "Close6": "0",
        "Name": "Quality Care Physical Therapy",
        "Close4": "1900",
        "Close5": "1710",
        "Wednesday": "1",
        "Longitude": "-122.2037611",
        "PostalCode": "98011338073",
        "Open4": "700",
        "Open6": "0",
        "Open1": "700",
        "Open0": "0",
        "Open3": "700",
        "Open2": "700",
        "PSACSA": "301777",
        "Tuesday": "1",
        "State": "WA",
        "WorkArea": "346",
        "Saturday": "0"
    },
    {
        "City": "WOODINVILLE",
        "Thursday": "1",
        "Open5": "1000",
        "Sunday": "1",
        "Latitude": "47.7547784",
        "Monday": "1",
        "Friday": "1",
        "AddressLine2": "STE 104",
        "location": [
            "-122.1578982",
            "47.7547784"
        ],
        "AddressLine1": "13620 NE 175TH ST",
        "RecipientName": "",
        "Close2": "1800",
        "Close3": "1800",
        "Close0": "1500",
        "Close1": "1800",
        "Close6": "1700",
        "Name": "13620 NE 175th St #104",
        "Close4": "1800",
        "Close5": "1800",
        "Wednesday": "1",
        "Longitude": "-122.1578982",
        "PostalCode": "98072681629",
        "Open4": "1000",
        "Open6": "1000",
        "Open1": "1000",
        "Open0": "1000",
        "Open3": "1000",
        "Open2": "1000",
        "PSACSA": "301777",
        "Tuesday": "1",
        "State": "WA",
        "WorkArea": "403",
        "Saturday": "1"
    },
    {
        "City": "KIRKLAND",
        "Thursday": "1",
        "Open5": "800",
        "Sunday": "1",
        "Latitude": "47.7049705",
        "Monday": "1",
        "Friday": "1",
        "AddressLine2": "",
        "location": [
            "-122.211133",
            "47.7049705"
        ],
        "AddressLine1": "11607 98TH AVE NE",
        "RecipientName": "WALGREEN DRUG STORE",
        "Close2": "0",
        "Close3": "0",
        "Close0": "0",
        "Close1": "0",
        "Close6": "0",
        "Name": "Walgreens",
        "Close4": "0",
        "Close5": "0",
        "Wednesday": "1",
        "Longitude": "-122.211133",
        "PostalCode": "98034421607",
        "Open4": "800",
        "Open6": "800",
        "Open1": "800",
        "Open0": "800",
        "Open3": "800",
        "Open2": "800",
        "PSACSA": "301777",
        "Tuesday": "1",
        "State": "WA",
        "WorkArea": "340",
        "Saturday": "1"
    },
    {
        "City": "WOODINVILLE",
        "Thursday": "1",
        "Open5": "700",
        "Sunday": "0",
        "Latitude": "47.7583062",
        "Monday": "1",
        "Friday": "1",
        "AddressLine2": "",
        "location": [
            "-122.1562614",
            "47.7583062"
        ],
        "AddressLine1": "17954 WOODINVILLE SNOHOMISH RD NE",
        "RecipientName": "SNO-WOOD VET HOSPITAL",
        "Close2": "1900",
        "Close3": "1900",
        "Close0": "0",
        "Close1": "1900",
        "Close6": "1700",
        "Name": "VCA Sno-Wood Animal Hospital",
        "Close4": "1900",
        "Close5": "1900",
        "Wednesday": "1",
        "Longitude": "-122.1562614",
        "PostalCode": "98072353654",
        "Open4": "700",
        "Open6": "800",
        "Open1": "700",
        "Open0": "0",
        "Open3": "700",
        "Open2": "700",
        "PSACSA": "301777",
        "Tuesday": "1",
        "State": "WA",
        "WorkArea": "403",
        "Saturday": "1"
    },
    {
        "City": "KIRKLAND",
        "Thursday": "0",
        "Open5": "0",
        "Sunday": "0",
        "Latitude": "47.72004",
        "Monday": "0",
        "Friday": "0",
        "AddressLine2": "",
        "location": [
            "-122.25929",
            "47.72004"
        ],
        "AddressLine1": "13233 HOLMES POINT DR NE",
        "RecipientName": "",
        "Close2": "0",
        "Close3": "0",
        "Close0": "0",
        "Close1": "0",
        "Close6": "0",
        "Name": "13233 Holmes Point Dr NE",
        "Close4": "0",
        "Close5": "0",
        "Wednesday": "0",
        "Longitude": "-122.25929",
        "PostalCode": "98034160233",
        "Open4": "0",
        "Open6": "0",
        "Open1": "0",
        "Open0": "0",
        "Open3": "0",
        "Open2": "0",
        "PSACSA": "301777",
        "Tuesday": "0",
        "State": "WA",
        "WorkArea": "340",
        "Saturday": "0"
    },
    {
        "City": "BOTHELL",
        "Thursday": "0",
        "Open5": "0",
        "Sunday": "0",
        "Latitude": "47.766426",
        "Monday": "0",
        "Friday": "0",
        "AddressLine2": "",
        "location": [
            "-122.1983321",
            "47.766426"
        ],
        "AddressLine1": "19027 107TH PL NE",
        "RecipientName": "",
        "Close2": "0",
        "Close3": "0",
        "Close0": "0",
        "Close1": "0",
        "Close6": "0",
        "Name": "19027 107th Pl NE",
        "Close4": "0",
        "Close5": "0",
        "Wednesday": "0",
        "Longitude": "-122.1983321",
        "PostalCode": "98011301127",
        "Open4": "0",
        "Open6": "0",
        "Open1": "0",
        "Open0": "0",
        "Open3": "0",
        "Open2": "0",
        "PSACSA": "301777",
        "Tuesday": "0",
        "State": "WA",
        "WorkArea": "346",
        "Saturday": "0"
    },
    {
        "City": "BOTHELL",
        "Thursday": "0",
        "Open5": "0",
        "Sunday": "0",
        "Latitude": "47.7600684",
        "Monday": "0",
        "Friday": "0",
        "AddressLine2": "",
        "location": [
            "-122.1982364",
            "47.7600684"
        ],
        "AddressLine1": "10615 SUNRISE DR",
        "RecipientName": "",
        "Close2": "0",
        "Close3": "0",
        "Close0": "0",
        "Close1": "0",
        "Close6": "0",
        "Name": "10615 Sunrise Dr",
        "Close4": "0",
        "Close5": "0",
        "Wednesday": "0",
        "Longitude": "-122.1982364",
        "PostalCode": "98011321515",
        "Open4": "0",
        "Open6": "0",
        "Open1": "0",
        "Open0": "0",
        "Open3": "0",
        "Open2": "0",
        "PSACSA": "301777",
        "Tuesday": "0",
        "State": "WA",
        "WorkArea": "346",
        "Saturday": "0"
    },
    {
        "City": "BOTHELL",
        "Thursday": "0",
        "Open5": "0",
        "Sunday": "0",
        "Latitude": "47.7389926",
        "Monday": "0",
        "Friday": "0",
        "AddressLine2": "",
        "location": [
            "-122.2056386",
            "47.7389926"
        ],
        "AddressLine1": "10115 NE 153RD ST",
        "RecipientName": "NORTHWEST HOME APPLIANCE",
        "Close2": "0",
        "Close3": "0",
        "Close0": "0",
        "Close1": "0",
        "Close6": "0",
        "Name": "NorthWest Home Appliance",
        "Close4": "0",
        "Close5": "0",
        "Wednesday": "0",
        "Longitude": "-122.2056386",
        "PostalCode": "98011720315",
        "Open4": "0",
        "Open6": "0",
        "Open1": "0",
        "Open0": "0",
        "Open3": "0",
        "Open2": "0",
        "PSACSA": "301777",
        "Tuesday": "0",
        "State": "WA",
        "WorkArea": "335",
        "Saturday": "0"
    },
    {
        "City": "WOODINVILLE",
        "Thursday": "0",
        "Open5": "0",
        "Sunday": "0",
        "Latitude": "47.7372003",
        "Monday": "0",
        "Friday": "0",
        "AddressLine2": "",
        "location": [
            "-122.1559741",
            "47.7372003"
        ],
        "AddressLine1": "15029 WOODINVILLE REDMOND RD NE",
        "RecipientName": "CHATEAU RETIREMENT COMMUNITIES",
        "Close2": "0",
        "Close3": "0",
        "Close0": "0",
        "Close1": "0",
        "Close6": "0",
        "Name": "Chateau Retirement Communities LLC",
        "Close4": "0",
        "Close5": "0",
        "Wednesday": "0",
        "Longitude": "-122.1559741",
        "PostalCode": "98072698829",
        "Open4": "0",
        "Open6": "0",
        "Open1": "0",
        "Open0": "0",
        "Open3": "0",
        "Open2": "0",
        "PSACSA": "301777",
        "Tuesday": "0",
        "State": "WA",
        "WorkArea": "403",
        "Saturday": "0"
    },
    {
        "City": "BOTHELL",
        "Thursday": "1",
        "Open5": "500",
        "Sunday": "1",
        "Latitude": "47.777656",
        "Monday": "1",
        "Friday": "1",
        "AddressLine2": "",
        "location": [
            "-122.183426",
            "47.777656"
        ],
        "AddressLine1": "3700 MONTE VILLA PKWY",
        "RecipientName": "EAGLEVIEW TECHNOLOGIES",
        "Close2": "1800",
        "Close3": "1800",
        "Close0": "1800",
        "Close1": "1800",
        "Close6": "1800",
        "Name": "EagleView Technologies, Inc.",
        "Close4": "1800",
        "Close5": "1800",
        "Wednesday": "1",
        "Longitude": "-122.183426",
        "PostalCode": "98021899200",
        "Open4": "500",
        "Open6": "500",
        "Open1": "500",
        "Open0": "500",
        "Open3": "500",
        "Open2": "500",
        "PSACSA": "301777",
        "Tuesday": "1",
        "State": "WA",
        "WorkArea": "346",
        "Saturday": "1"
    },
    {
        "City": "BOTHELL",
        "Thursday": "1",
        "Open5": "800",
        "Sunday": "0",
        "Latitude": "47.7654204",
        "Monday": "1",
        "Friday": "1",
        "AddressLine2": "STE 101",
        "location": [
            "-122.1855636",
            "47.7654204"
        ],
        "AddressLine1": "19015 N CREEK PKWY",
        "RecipientName": "FAIRWAY MORTGAGE",
        "Close2": "1700",
        "Close3": "1700",
        "Close0": "0",
        "Close1": "1700",
        "Close6": "0",
        "Name": "Thomas Fadden - Fairway Independent Mortgage",
        "Close4": "1700",
        "Close5": "1700",
        "Wednesday": "1",
        "Longitude": "-122.1855636",
        "PostalCode": "98011802926",
        "Open4": "800",
        "Open6": "0",
        "Open1": "800",
        "Open0": "0",
        "Open3": "800",
        "Open2": "800",
        "PSACSA": "301777",
        "Tuesday": "1",
        "State": "WA",
        "WorkArea": "353",
        "Saturday": "0"
    },
    {
        "City": "WOODINVILLE",
        "Thursday": "1",
        "Open5": "800",
        "Sunday": "0",
        "Latitude": "47.7380179",
        "Monday": "1",
        "Friday": "1",
        "AddressLine2": "",
        "location": [
            "-122.1534513",
            "47.7380179"
        ],
        "AddressLine1": "15100 WOODINVILLE REDMOND RD NE",
        "RecipientName": "NORTH SOUND INDUSTRIES",
        "Close2": "1600",
        "Close3": "1600",
        "Close0": "0",
        "Close1": "1600",
        "Close6": "0",
        "Name": "North Sound Industries",
        "Close4": "1600",
        "Close5": "1600",
        "Wednesday": "1",
        "Longitude": "-122.1534513",
        "PostalCode": "98072454099",
        "Open4": "800",
        "Open6": "0",
        "Open1": "800",
        "Open0": "0",
        "Open3": "800",
        "Open2": "800",
        "PSACSA": "301777",
        "Tuesday": "1",
        "State": "WA",
        "WorkArea": "403",
        "Saturday": "0"
    },
    {
        "City": "BOTHELL",
        "Thursday": "0",
        "Open5": "0",
        "Sunday": "0",
        "Latitude": "47.7604469",
        "Monday": "0",
        "Friday": "0",
        "AddressLine2": "",
        "location": [
            "-122.2062024",
            "47.7604469"
        ],
        "AddressLine1": "10038 MAIN ST",
        "RecipientName": "DINOTRANSFER",
        "Close2": "0",
        "Close3": "0",
        "Close0": "0",
        "Close1": "0",
        "Close6": "0",
        "Name": "Dino Transfer",
        "Close4": "0",
        "Close5": "0",
        "Wednesday": "0",
        "Longitude": "-122.2062024",
        "PostalCode": "98011342438",
        "Open4": "0",
        "Open6": "0",
        "Open1": "0",
        "Open0": "0",
        "Open3": "0",
        "Open2": "0",
        "PSACSA": "301777",
        "Tuesday": "0",
        "State": "WA",
        "WorkArea": "346",
        "Saturday": "0"
    },
    {
        "City": "BOTHELL",
        "Thursday": "0",
        "Open5": "0",
        "Sunday": "0",
        "Latitude": "47.768792",
        "Monday": "0",
        "Friday": "0",
        "AddressLine2": "",
        "location": [
            "-122.2051473",
            "47.768792"
        ],
        "AddressLine1": "10049 NE 195TH ST",
        "RecipientName": "ST BRENDAN SCHOOL",
        "Close2": "0",
        "Close3": "0",
        "Close0": "0",
        "Close1": "0",
        "Close6": "0",
        "Name": "St. Brendan Parish School",
        "Close4": "0",
        "Close5": "0",
        "Wednesday": "0",
        "Longitude": "-122.2051473",
        "PostalCode": "98011293149",
        "Open4": "0",
        "Open6": "0",
        "Open1": "0",
        "Open0": "0",
        "Open3": "0",
        "Open2": "0",
        "PSACSA": "301777",
        "Tuesday": "0",
        "State": "WA",
        "WorkArea": "346",
        "Saturday": "0"
    },
    {
        "City": "KENMORE",
        "Thursday": "1",
        "Open5": "1500",
        "Sunday": "1",
        "Latitude": "47.7568358",
        "Monday": "0",
        "Friday": "1",
        "AddressLine2": "",
        "location": [
            "-122.2439623",
            "47.7568358"
        ],
        "AddressLine1": "7204 NE 175TH ST",
        "RecipientName": "",
        "Close2": "0",
        "Close3": "2100",
        "Close0": "1800",
        "Close1": "0",
        "Close6": "2200",
        "Name": "7204 NE 175th St",
        "Close4": "2100",
        "Close5": "2200",
        "Wednesday": "1",
        "Longitude": "-122.2439623",
        "PostalCode": "98028356199",
        "Open4": "1600",
        "Open6": "1130",
        "Open1": "0",
        "Open0": "1130",
        "Open3": "1600",
        "Open2": "0",
        "PSACSA": "301777",
        "Tuesday": "0",
        "State": "WA",
        "WorkArea": "346",
        "Saturday": "1"
    },
    {
        "City": "WOODINVILLE",
        "Thursday": "0",
        "Open5": "0",
        "Sunday": "0",
        "Latitude": "47.768429",
        "Monday": "0",
        "Friday": "0",
        "AddressLine2": "",
        "location": [
            "-122.1471735",
            "47.768429"
        ],
        "AddressLine1": "19400 144TH AVE NE",
        "RecipientName": "HAGER MOTORSPORTS",
        "Close2": "0",
        "Close3": "0",
        "Close0": "0",
        "Close1": "0",
        "Close6": "0",
        "Name": "RPM Sales",
        "Close4": "0",
        "Close5": "0",
        "Wednesday": "0",
        "Longitude": "-122.1471735",
        "PostalCode": "98072642599",
        "Open4": "0",
        "Open6": "0",
        "Open1": "0",
        "Open0": "0",
        "Open3": "0",
        "Open2": "0",
        "PSACSA": "301777",
        "Tuesday": "0",
        "State": "WA",
        "WorkArea": "353",
        "Saturday": "0"
    },
    {
        "City": "BOTHELL",
        "Thursday": "1",
        "Open5": "0",
        "Sunday": "1",
        "Latitude": "47.7289521",
        "Monday": "1",
        "Friday": "1",
        "AddressLine2": "INGLEWOOD VILLAGE",
        "location": [
            "-122.2431273",
            "47.7289521"
        ],
        "AddressLine1": "14130 JUANITA DR NE",
        "RecipientName": "QFC #838",
        "Close2": "2359",
        "Close3": "2359",
        "Close0": "2359",
        "Close1": "2359",
        "Close6": "2359",
        "Name": "Quality Food Center",
        "Close4": "2359",
        "Close5": "2359",
        "Wednesday": "1",
        "Longitude": "-122.2431273",
        "PostalCode": "98011",
        "Open4": "0",
        "Open6": "0",
        "Open1": "0",
        "Open0": "0",
        "Open3": "0",
        "Open2": "0",
        "PSACSA": "301777",
        "Tuesday": "1",
        "State": "WA",
        "WorkArea": "340",
        "Saturday": "1"
    }
]